{
  "Restaruant" :[
    {
      "id":1,
      "name":"춘천옥",
      "location":"대구광역시 중구 동인동4가 4",
      "type":"한식",
      "star":4.0,
      "review":20,
      "tel":"053-522-3333",
      "img": "http://via.placeholder.com/160"
    },
    {
      "id":2,
      "name":"청해회수산",
      "location":"대구광역시 중구 대봉동 17-10",
      "type":"한식",
      "star":4.5,
      "review":10,
      "tel":"053-422-6921",
      "img": "http://via.placeholder.com/160"
    },
    {
      "id":3,
      "name":"남산면",
      "location":"대구광역시 중구 남산동 938-9",
      "type":"한식",
      "star":3.5,
      "review":2,
      "tel":"053-568-9090",
      "img": "http://via.placeholder.com/160"
    },
    {
      "id":4,
      "name":"동아식당",
      "location":"대구광역시 중구 공평동 10-2",
      "type":"한식",
      "star":4.2,
      "review":40,
      "tel":"010-****-1017",
      "img": "http://via.placeholder.com/160"
    },
    {
      "id":5,
      "name":"오일리버거",
      "location":"대구광역시 중구 공평동 1-1",
      "type":"양식",
      "star":3.7,
      "review":50,
      "tel":"053-213-0512",
      "img": "http://via.placeholder.com/160"
    },
    {
      "id":6,
      "name":"테이스팅 스푼",
      "location":"대구광역시 중구 삼덕동1가 21-10",
      "type":"양식",
      "star":3.5,
      "review":2,
      "tel":"053-424-5925",
      "img": "http://via.placeholder.com/160"
    },
    {
      "id":7,
      "name":"로니스도우",
      "location":"대구광역시 중구 공평동 1-5",
      "type":"양식",
      "star":3.3,
      "review":25,
      "tel":"010-****-6176",
      "img": "http://via.placeholder.com/160"
    },
    {
      "id":8,
      "name":"노세콘도(Nosecondo)",
      "location":"대구광역시 중구 대안동 22",
      "type":"양식",
      "star":4.4,
      "review":12,
      "tel":"010-****-6451",
      "img": "http://via.placeholder.com/160"
    },
    {
      "id":9,
      "name":"팜테이블",
      "location":"대구광역시 중구 공평동 82-3",
      "type":"디저트/베이커리",
      "star":4.9,
      "review":24,
      "tel":"053- 256-7436",
      "img": "http://via.placeholder.com/160"
    },
    {
      "id":10,
      "name":"카이스샌드위치샵",
      "location":"대구광역시 중구 봉산동 225-5",
      "type":"디저트/베이커리",
      "star":3.7,
      "review":35,
      "tel":"010-****-3774",
      "img": "http://via.placeholder.com/160"
    },
    {
      "id":11,
      "name":"에스파스 베이커리",
      "location":"대구광역시 중구 종로1가 34-2",
      "type":"디저트/베이커리",
      "star":4.0,
      "review":5,
      "tel":"053-267-7788",
      "img": "http://via.placeholder.com/160"
    },
    {
      "id":12,
      "name":"르폴뒤",
      "location":"대구광역시 중구 덕산동 124-29",
      "type":"디저트/베이커리",
      "star":3.2,
      "review":53,
      "tel":"053-426-3006",
      "img": "http://via.placeholder.com/160"
    },
    {
      "id":13,
      "name":"오호리준",
      "location":"대구광역시 중구 동일동 32-2",
      "type":"일식",
      "star":4.1,
      "review":22,
      "tel":"0507-1402-8965",
      "img": "http://via.placeholder.com/160"
    },
    {
      "id":14,
      "name":"갓파스시",
      "location":"대구광역시 중구 동일동 32-2",
      "type":"일식",
      "star":3.2,
      "review":15,
      "tel":"0507-1372-4377",
      "img": "http://via.placeholder.com/160"
    },
    {
      "id":15,
      "name":"미림",
      "location":"대구광역시 중구 대신동 138",
      "type":"일식",
      "star":4.5,
      "review":17,
      "tel":"053-554-6636",
      "img": "http://via.placeholder.com/160"
    },
    {
      "id":16,
      "name":"사야까",
      "location":"대구광역시 중구 공평동 8-6",
      "type":"일식",
      "star":4.2,
      "review":3,
      "tel":"053-427-0141",
      "img": "http://via.placeholder.com/160"
    },
    {
      "id":17,
      "name":"태산만두",
      "location":"대구광역시 중구 덕산동 124-10",
      "type":"중식",
      "star":3.0,
      "review":18,
      "tel":"053-424-0449",
      "img": "http://via.placeholder.com/160"
    },
    {
      "id":18,
      "name":"중화반점",
      "location":"대구광역시 중구 남일동 92",
      "type":"중식",
      "star":3.4,
      "review":16,
      "tel":"053-425-6839",
      "img": "http://via.placeholder.com/160"
    },
    {
      "id":19,
      "name":"영생덕",
      "location":"대구광역시 중구 종로2가 20",
      "type":"중식",
      "star":4.3,
      "review":4,
      "tel":"053-425-6839",
      "img": "http://via.placeholder.com/160"
    }
  ]
}